{
  "type": "FeatureCollection",
  "generator": "overpass-ide",
  "copyright": "The data included in this document is from www.openstreetmap.org. The data is made available under ODbL.",
  "timestamp": "2020-10-31T00:50:03Z",
  "features": [
    {
      "type": "Feature",
      "properties": {
        "@id": "node/7732035",
        "highway": "bus_stop",
        "public_transport": "platform"
      },
      "geometry": {
        "type": "Point",
        "coordinates": [
          12.4694716,
          55.6996116
        ]
      },
      "id": "node/7732035"
    },
    {
      "type": "Feature",
      "properties": {
        "@id": "node/8084956",
        "highway": "bus_stop",
        "name": "Grøndal Station",
        "public_transport": "platform"
      },
      "geometry": {
        "type": "Point",
        "coordinates": [
          12.5161914,
          55.6906874
        ]
      },
      "id": "node/8084956"
    },
    {
      "type": "Feature",
      "properties": {
        "@id": "node/12723457",
        "bus": "yes",
        "highway": "bus_stop",
        "name": "Svanemøllen St., Sløjfen",
        "public_transport": "stop_position"
      },
      "geometry": {
        "type": "Point",
        "coordinates": [
          12.5780189,
          55.7149791
        ]
      },
      "id": "node/12723457"
    },
    {
      "type": "Feature",
      "properties": {
        "@id": "node/283018988",
        "bus": "yes",
        "highway": "bus_stop",
        "name": "Fuglsang Allé",
        "network": "Movia",
        "network:wikidata": "Q3359392",
        "public_transport": "platform"
      },
      "geometry": {
        "type": "Point",
        "coordinates": [
          12.5011161,
          55.6978214
        ]
      },
      "id": "node/283018988"
    },
    {
      "type": "Feature",
      "properties": {
        "@id": "node/283018989",
        "bus": "yes",
        "highway": "bus_stop",
        "name": "Bellahøjvej",
        "network": "Movia",
        "network:wikidata": "Q3359392",
        "public_transport": "platform"
      },
      "geometry": {
        "type": "Point",
        "coordinates": [
          12.5037898,
          55.6959014
        ]
      },
      "id": "node/283018989"
    },
    {
      "type": "Feature",
      "properties": {
        "@id": "node/283018990",
        "bus": "yes",
        "highway": "bus_stop",
        "name": "Hulgårdsvej",
        "network": "Movia",
        "network:wikidata": "Q3359392",
        "public_transport": "platform"
      },
      "geometry": {
        "type": "Point",
        "coordinates": [
          12.5104709,
          55.6942648
        ]
      },
      "id": "node/283018990"
    },
    {
      "type": "Feature",
      "properties": {
        "@id": "node/283019022",
        "bus": "yes",
        "highway": "bus_stop",
        "name": "Rønnebærvej",
        "network": "Movia",
        "network:wikidata": "Q3359392",
        "public_transport": "platform"
      },
      "geometry": {
        "type": "Point",
        "coordinates": [
          12.5135377,
          55.6928411
        ]
      },
      "id": "node/283019022"
    },
    {
      "type": "Feature",
      "properties": {
        "@id": "node/287508068",
        "highway": "bus_stop",
        "name": "Rådhuspladsen St.",
        "network": "Movia",
        "network:wikidata": "Q3359392",
        "shelter": "yes"
      },
      "geometry": {
        "type": "Point",
        "coordinates": [
          12.5675017,
          55.6764344
        ]
      },
      "id": "node/287508068"
    },
    {
      "type": "Feature",
      "properties": {
        "@id": "node/287508101",
        "highway": "bus_stop",
        "name": "Vesterport st.",
        "public_transport": "platform",
        "wheelchair": "yes"
      },
      "geometry": {
        "type": "Point",
        "coordinates": [
          12.5623751,
          55.6754755
        ]
      },
      "id": "node/287508101"
    },
    {
      "type": "Feature",
      "properties": {
        "@id": "node/287508935",
        "bus": "yes",
        "highway": "bus_stop",
        "name": "Nuuks Plads St.",
        "network": "Movia",
        "network:wikidata": "Q3359392",
        "public_transport": "platform",
        "shelter": "no"
      },
      "geometry": {
        "type": "Point",
        "coordinates": [
          12.5426932,
          55.6888387
        ]
      },
      "id": "node/287508935"
    },
    {
      "type": "Feature",
      "properties": {
        "@id": "node/287510456",
        "bus": "yes",
        "highway": "bus_stop",
        "name": "Hovedbanegården, Tivoli (Bernstorffsgade)",
        "network": "Movia",
        "network:wikidata": "Q3359392",
        "public_transport": "platform",
        "ref": "10844"
      },
      "geometry": {
        "type": "Point",
        "coordinates": [
          12.5662702,
          55.6728482
        ]
      },
      "id": "node/287510456"
    },
    {
      "type": "Feature",
      "properties": {
        "@id": "node/290440334",
        "highway": "bus_stop",
        "name": "Gammel Strand St., Christiansborg",
        "network": "Movia",
        "network:wikidata": "Q3359392",
        "shelter": "yes"
      },
      "geometry": {
        "type": "Point",
        "coordinates": [
          12.5806058,
          55.6772194
        ]
      },
      "id": "node/290440334"
    },
    {
      "type": "Feature",
      "properties": {
        "@id": "node/297980336",
        "bus": "yes",
        "highway": "bus_stop",
        "name": "Persiensvej",
        "network": "Movia",
        "network:wikidata": "Q3359392",
        "public_transport": "platform"
      },
      "geometry": {
        "type": "Point",
        "coordinates": [
          12.6207662,
          55.651179
        ]
      },
      "id": "node/297980336"
    },
    {
      "type": "Feature",
      "properties": {
        "@id": "node/298078807",
        "bus": "yes",
        "highway": "bus_stop",
        "name": "Ålholm St. (Roskildevej)",
        "network": "Movia",
        "network:wikidata": "Q3359392",
        "public_transport": "platform"
      },
      "geometry": {
        "type": "Point",
        "coordinates": [
          12.4933983,
          55.6723865
        ]
      },
      "id": "node/298078807"
    },
    {
      "type": "Feature",
      "properties": {
        "@id": "node/298535593",
        "highway": "bus_stop",
        "name": "Blagardsgade",
        "public_transport": "platform",
        "shelter": "no"
      },
      "geometry": {
        "type": "Point",
        "coordinates": [
          12.5545447,
          55.6845724
        ]
      },
      "id": "node/298535593"
    },
    {
      "type": "Feature",
      "properties": {
        "@id": "node/305260441",
        "bus": "yes",
        "highway": "bus_stop",
        "name": "Kanadavej",
        "network": "Movia",
        "network:wikidata": "Q3359392",
        "public_transport": "platform",
        "shelter": "no",
        "wheelchair": "limited"
      },
      "geometry": {
        "type": "Point",
        "coordinates": [
          12.5885403,
          55.6352754
        ]
      },
      "id": "node/305260441"
    },
    {
      "type": "Feature",
      "properties": {
        "@id": "node/307363192",
        "highway": "bus_stop",
        "name": "33",
        "shelter": "no"
      },
      "geometry": {
        "type": "Point",
        "coordinates": [
          12.58742,
          55.6297443
        ]
      },
      "id": "node/307363192"
    },
    {
      "type": "Feature",
      "properties": {
        "@id": "node/307363194",
        "bus": "yes",
        "highway": "bus_stop",
        "local_ref": "33",
        "name": "Ørestad St.",
        "public_transport": "platform"
      },
      "geometry": {
        "type": "Point",
        "coordinates": [
          12.5794683,
          55.629768
        ]
      },
      "id": "node/307363194"
    },
    {
      "type": "Feature",
      "properties": {
        "@id": "node/307363204",
        "bus": "yes",
        "highway": "bus_stop",
        "name": "Vestamager St.",
        "network": "Movia",
        "network:wikidata": "Q3359392",
        "public_transport": "platform",
        "shelter": "yes",
        "tactile_paving": "no"
      },
      "geometry": {
        "type": "Point",
        "coordinates": [
          12.5749097,
          55.6189528
        ]
      },
      "id": "node/307363204"
    },
    {
      "type": "Feature",
      "properties": {
        "@id": "node/307363223",
        "bus": "yes",
        "highway": "bus_stop",
        "name": "Foldbyvej",
        "network": "Movia",
        "network:wikidata": "Q3359392",
        "public_transport": "platform",
        "shelter": "yes"
      },
      "geometry": {
        "type": "Point",
        "coordinates": [
          12.5777652,
          55.6180708
        ]
      },
      "id": "node/307363223"
    },
    {
      "type": "Feature",
      "properties": {
        "@id": "node/338791535",
        "bus": "yes",
        "highway": "bus_stop",
        "name": "Ny Ellebjerg st.",
        "network": "Movia",
        "network:wikidata": "Q3359392",
        "public_transport": "platform",
        "shelter": "yes"
      },
      "geometry": {
        "type": "Point",
        "coordinates": [
          12.5172274,
          55.652469
        ]
      },
      "id": "node/338791535"
    },
    {
      "type": "Feature",
      "properties": {
        "@id": "node/393190127",
        "bus": "yes",
        "highway": "bus_stop",
        "name": "Ravnsborggade",
        "network": "Movia",
        "network:wikidata": "Q3359392",
        "public_transport": "stop_position"
      },
      "geometry": {
        "type": "Point",
        "coordinates": [
          12.5617321,
          55.6874944
        ]
      },
      "id": "node/393190127"
    },
    {
      "type": "Feature",
      "properties": {
        "@id": "node/423997557",
        "highway": "bus_stop",
        "name": "Rundetårn",
        "public_transport": "platform"
      },
      "geometry": {
        "type": "Point",
        "coordinates": [
          12.5758625,
          55.681733
        ]
      },
      "id": "node/423997557"
    },
    {
      "type": "Feature",
      "properties": {
        "@id": "node/428832420",
        "highway": "bus_stop",
        "public_transport": "platform",
        "wheelchair": "yes"
      },
      "geometry": {
        "type": "Point",
        "coordinates": [
          12.5612816,
          55.7026442
        ]
      },
      "id": "node/428832420"
    },
    {
      "type": "Feature",
      "properties": {
        "@id": "node/428832425",
        "bus": "yes",
        "highway": "bus_stop",
        "name": "Nørre Campus",
        "network": "Movia",
        "network:wikidata": "Q3359392",
        "public_transport": "platform",
        "shelter": "yes"
      },
      "geometry": {
        "type": "Point",
        "coordinates": [
          12.5620664,
          55.6960198
        ]
      },
      "id": "node/428832425"
    },
    {
      "type": "Feature",
      "properties": {
        "@id": "node/431334965",
        "highway": "bus_stop",
        "name": "Nørreport",
        "public_transport": "platform"
      },
      "geometry": {
        "type": "Point",
        "coordinates": [
          12.5713958,
          55.6835747
        ]
      },
      "id": "node/431334965"
    },
    {
      "type": "Feature",
      "properties": {
        "@id": "node/432621855",
        "bus": "yes",
        "highway": "bus_stop",
        "name": "Terrasserne",
        "network": "Movia",
        "network:wikidata": "Q3359392",
        "public_transport": "platform"
      },
      "geometry": {
        "type": "Point",
        "coordinates": [
          12.4884508,
          55.7166787
        ]
      },
      "id": "node/432621855"
    },
    {
      "type": "Feature",
      "properties": {
        "@id": "node/458366435",
        "bus": "yes",
        "highway": "bus_stop",
        "name": "Dybbølsbro Station",
        "network": "Movia",
        "network:wikidata": "Q3359392",
        "public_transport": "platform",
        "shelter": "yes"
      },
      "geometry": {
        "type": "Point",
        "coordinates": [
          12.5580787,
          55.6652417
        ]
      },
      "id": "node/458366435"
    },
    {
      "type": "Feature",
      "properties": {
        "@id": "node/458366437",
        "bus": "yes",
        "highway": "bus_stop",
        "name": "Dybbølsbro Station",
        "network": "Movia",
        "network:wikidata": "Q3359392",
        "public_transport": "platform",
        "shelter": "no"
      },
      "geometry": {
        "type": "Point",
        "coordinates": [
          12.5591879,
          55.665462
        ]
      },
      "id": "node/458366437"
    },
    {
      "type": "Feature",
      "properties": {
        "@id": "node/467771061",
        "highway": "bus_stop",
        "name": "Sortedam dossering",
        "public_transport": "platform"
      },
      "geometry": {
        "type": "Point",
        "coordinates": [
          12.5695091,
          55.6916993
        ]
      },
      "id": "node/467771061"
    },
    {
      "type": "Feature",
      "properties": {
        "@id": "node/467774057",
        "highway": "bus_stop",
        "name": "Sortedam dossering",
        "public_transport": "platform"
      },
      "geometry": {
        "type": "Point",
        "coordinates": [
          12.5693763,
          55.6920658
        ]
      },
      "id": "node/467774057"
    },
    {
      "type": "Feature",
      "properties": {
        "@id": "node/494608151",
        "highway": "bus_stop",
        "name": "Fiolstræde",
        "public_transport": "platform"
      },
      "geometry": {
        "type": "Point",
        "coordinates": [
          12.5725382,
          55.680734
        ]
      },
      "id": "node/494608151"
    },
    {
      "type": "Feature",
      "properties": {
        "@id": "node/546472054",
        "bus": "yes",
        "highway": "bus_stop",
        "name": "Brønshøj Torv",
        "network": "Movia",
        "network:wikidata": "Q3359392",
        "public_transport": "platform"
      },
      "geometry": {
        "type": "Point",
        "coordinates": [
          12.4976482,
          55.7042413
        ]
      },
      "id": "node/546472054"
    },
    {
      "type": "Feature",
      "properties": {
        "@id": "node/552383313",
        "bus": "yes",
        "highway": "bus_stop",
        "name": "Astrupvej",
        "network": "Movia",
        "network:wikidata": "Q3359392",
        "public_transport": "platform"
      },
      "geometry": {
        "type": "Point",
        "coordinates": [
          12.4918321,
          55.7056091
        ]
      },
      "id": "node/552383313"
    },
    {
      "type": "Feature",
      "properties": {
        "@id": "node/552383391",
        "bus": "yes",
        "highway": "bus_stop",
        "name": "Astrupvej",
        "network": "Movia",
        "network:wikidata": "Q3359392",
        "public_transport": "platform"
      },
      "geometry": {
        "type": "Point",
        "coordinates": [
          12.4935315,
          55.7051563
        ]
      },
      "id": "node/552383391"
    },
    {
      "type": "Feature",
      "properties": {
        "@id": "node/560792913",
        "bin": "yes",
        "bus": "yes",
        "highway": "bus_stop",
        "name": "Østerbrogade",
        "network": "Movia",
        "network:wikidata": "Q3359392",
        "passenger_information_display": "yes",
        "public_transport": "platform",
        "shelter": "no",
        "tactile_paving": "yes"
      },
      "geometry": {
        "type": "Point",
        "coordinates": [
          12.5768782,
          55.7147829
        ]
      },
      "id": "node/560792913"
    },
    {
      "type": "Feature",
      "properties": {
        "@id": "node/589026668",
        "bus": "yes",
        "highway": "bus_stop",
        "name": "Langdraget",
        "network": "Movia",
        "network:wikidata": "Q3359392",
        "public_transport": "platform"
      },
      "geometry": {
        "type": "Point",
        "coordinates": [
          12.4903211,
          55.6804268
        ]
      },
      "id": "node/589026668"
    },
    {
      "type": "Feature",
      "properties": {
        "@id": "node/589026671",
        "bus": "yes",
        "highway": "bus_stop",
        "name": "Grøndals Parkvej",
        "network": "Movia",
        "network:wikidata": "Q3359392",
        "public_transport": "platform"
      },
      "geometry": {
        "type": "Point",
        "coordinates": [
          12.4933165,
          55.6842866
        ]
      },
      "id": "node/589026671"
    },
    {
      "type": "Feature",
      "properties": {
        "@id": "node/589026672",
        "bus": "yes",
        "highway": "bus_stop",
        "name": "Grøndals Parkvej",
        "network": "Movia",
        "network:wikidata": "Q3359392",
        "public_transport": "platform"
      },
      "geometry": {
        "type": "Point",
        "coordinates": [
          12.4931073,
          55.6842005
        ]
      },
      "id": "node/589026672"
    },
    {
      "type": "Feature",
      "properties": {
        "@id": "node/589026675",
        "bus": "yes",
        "highway": "bus_stop",
        "name": "Jernbane Allé",
        "network": "Movia",
        "network:wikidata": "Q3359392",
        "public_transport": "platform"
      },
      "geometry": {
        "type": "Point",
        "coordinates": [
          12.494046,
          55.6840855
        ]
      },
      "id": "node/589026675"
    },
    {
      "type": "Feature",
      "properties": {
        "@id": "node/595782478",
        "highway": "bus_stop",
        "name": "Jarmers Plads",
        "public_transport": "platform"
      },
      "geometry": {
        "type": "Point",
        "coordinates": [
          12.5666296,
          55.6792539
        ]
      },
      "id": "node/595782478"
    },
    {
      "type": "Feature",
      "properties": {
        "@id": "node/595782481",
        "bus": "yes",
        "highway": "bus_stop",
        "name": "Nørreport St.",
        "network": "Movia",
        "network:wikidata": "Q3359392",
        "public_transport": "platform"
      },
      "geometry": {
        "type": "Point",
        "coordinates": [
          12.572042,
          55.6837634
        ]
      },
      "id": "node/595782481"
    },
    {
      "type": "Feature",
      "properties": {
        "@id": "node/617285051",
        "bus": "yes",
        "highway": "bus_stop",
        "name": "Århusgade",
        "public_transport": "stop_position",
        "wheelchair": "yes"
      },
      "geometry": {
        "type": "Point",
        "coordinates": [
          12.5773627,
          55.7062051
        ]
      },
      "id": "node/617285051"
    },
    {
      "type": "Feature",
      "properties": {
        "@id": "node/644025384",
        "bus": "yes",
        "highway": "bus_stop",
        "name": "Haraldsgade",
        "network": "Movia",
        "network:wikidata": "Q3359392",
        "public_transport": "platform",
        "shelter": "yes"
      },
      "geometry": {
        "type": "Point",
        "coordinates": [
          12.5612077,
          55.7094433
        ]
      },
      "id": "node/644025384"
    },
    {
      "type": "Feature",
      "properties": {
        "@id": "node/644025411",
        "bus": "yes",
        "highway": "bus_stop",
        "name": "Ryparken St.",
        "network": "Movia",
        "network:wikidata": "Q3359392",
        "public_transport": "platform",
        "shelter": "yes"
      },
      "geometry": {
        "type": "Point",
        "coordinates": [
          12.5581078,
          55.7149262
        ]
      },
      "id": "node/644025411"
    },
    {
      "type": "Feature",
      "properties": {
        "@id": "node/644039782",
        "bus": "yes",
        "highway": "bus_stop",
        "name": "Vibenhus Runddel St.",
        "network": "Movia",
        "network:wikidata": "Q3359392",
        "public_transport": "platform"
      },
      "geometry": {
        "type": "Point",
        "coordinates": [
          12.5627216,
          55.7057046
        ]
      },
      "id": "node/644039782"
    },
    {
      "type": "Feature",
      "properties": {
        "@id": "node/664257006",
        "bus": "yes",
        "highway": "bus_stop",
        "name": "Nørrebros Runddel St.",
        "network": "Movia",
        "network:wikidata": "Q3359392",
        "public_transport": "platform"
      },
      "geometry": {
        "type": "Point",
        "coordinates": [
          12.5481106,
          55.6946967
        ]
      },
      "id": "node/664257006"
    },
    {
      "type": "Feature",
      "properties": {
        "@id": "node/664257007",
        "bus": "yes",
        "highway": "bus_stop",
        "name": "Nørrebros Runddel St.",
        "network": "Movia",
        "network:wikidata": "Q3359392",
        "public_transport": "platform",
        "shelter": "yes"
      },
      "geometry": {
        "type": "Point",
        "coordinates": [
          12.549339,
          55.694089
        ]
      },
      "id": "node/664257007"
    },
    {
      "type": "Feature",
      "properties": {
        "@id": "node/674795510",
        "bench": "yes",
        "bus": "yes",
        "covered": "yes",
        "highway": "bus_stop",
        "name": "Enghave Plads St. (Flensborggade)",
        "network": "Movia",
        "network:wikidata": "Q3359392",
        "public_transport": "platform",
        "shelter": "yes"
      },
      "geometry": {
        "type": "Point",
        "coordinates": [
          12.5471777,
          55.6674378
        ]
      },
      "id": "node/674795510"
    },
    {
      "type": "Feature",
      "properties": {
        "@id": "node/677512802",
        "bus": "yes",
        "highway": "bus_stop",
        "name": "Axel Heides Gade",
        "network": "Movia",
        "network:wikidata": "Q3359392",
        "public_transport": "platform"
      },
      "geometry": {
        "type": "Point",
        "coordinates": [
          12.5723895,
          55.6595293
        ]
      },
      "id": "node/677512802"
    },
    {
      "type": "Feature",
      "properties": {
        "@id": "node/677513055",
        "bus": "yes",
        "highway": "bus_stop",
        "name": "Axel Heides Gade",
        "network": "Movia",
        "network:wikidata": "Q3359392",
        "public_transport": "platform"
      },
      "geometry": {
        "type": "Point",
        "coordinates": [
          12.571939,
          55.6594434
        ]
      },
      "id": "node/677513055"
    },
    {
      "type": "Feature",
      "properties": {
        "@id": "node/677516050",
        "bus": "yes",
        "highway": "bus_stop",
        "name": "Rundholtsvej",
        "network": "Movia",
        "network:wikidata": "Q3359392",
        "public_transport": "platform"
      },
      "geometry": {
        "type": "Point",
        "coordinates": [
          12.5686047,
          55.6543287
        ]
      },
      "id": "node/677516050"
    },
    {
      "type": "Feature",
      "properties": {
        "@id": "node/687316733",
        "highway": "bus_stop",
        "name": "11 CityCirkel",
        "public_transport": "platform"
      },
      "geometry": {
        "type": "Point",
        "coordinates": [
          12.5715495,
          55.678226
        ]
      },
      "id": "node/687316733"
    },
    {
      "type": "Feature",
      "properties": {
        "@id": "node/698835638",
        "bus": "yes",
        "highway": "bus_stop",
        "name": "Hovedbanegården, Tivoli (Bernstorffsgade)",
        "network": "Movia",
        "network:wikidata": "Q3359392",
        "public_transport": "platform",
        "ref": "10843"
      },
      "geometry": {
        "type": "Point",
        "coordinates": [
          12.5668818,
          55.6723335
        ]
      },
      "id": "node/698835638"
    },
    {
      "type": "Feature",
      "properties": {
        "@id": "node/760668563",
        "bus": "yes",
        "highway": "bus_stop",
        "name": "Ålholm Plads",
        "public_transport": "platform"
      },
      "geometry": {
        "type": "Point",
        "coordinates": [
          12.4892987,
          55.6722328
        ]
      },
      "id": "node/760668563"
    },
    {
      "type": "Feature",
      "properties": {
        "@id": "node/760694453",
        "highway": "bus_stop",
        "name": "Enghave st.",
        "public_transport": "platform"
      },
      "geometry": {
        "type": "Point",
        "coordinates": [
          12.5419419,
          55.6633951
        ]
      },
      "id": "node/760694453"
    },
    {
      "type": "Feature",
      "properties": {
        "@id": "node/760694465",
        "highway": "bus_stop",
        "name": "Enghave st.",
        "public_transport": "platform",
        "shelter": "yes"
      },
      "geometry": {
        "type": "Point",
        "coordinates": [
          12.5415934,
          55.6629524
        ]
      },
      "id": "node/760694465"
    },
    {
      "type": "Feature",
      "properties": {
        "@id": "node/761283185",
        "bus": "yes",
        "highway": "bus_stop",
        "name": "Amagerfælled Skole",
        "network": "Movia",
        "network:wikidata": "Q3359392",
        "public_transport": "platform",
        "shelter": "yes"
      },
      "geometry": {
        "type": "Point",
        "coordinates": [
          12.5931885,
          55.6631725
        ]
      },
      "id": "node/761283185"
    },
    {
      "type": "Feature",
      "properties": {
        "@id": "node/761283192",
        "bus": "yes",
        "highway": "bus_stop",
        "name": "Amagerfælled Skole",
        "network": "Movia",
        "network:wikidata": "Q3359392",
        "public_transport": "platform",
        "shelter": "yes"
      },
      "geometry": {
        "type": "Point",
        "coordinates": [
          12.5937517,
          55.6624902
        ]
      },
      "id": "node/761283192"
    },
    {
      "type": "Feature",
      "properties": {
        "@id": "node/761283199",
        "bus": "yes",
        "highway": "bus_stop",
        "name": "Hørgården",
        "network": "Movia",
        "network:wikidata": "Q3359392",
        "public_transport": "platform",
        "shelter": "yes"
      },
      "geometry": {
        "type": "Point",
        "coordinates": [
          12.5924483,
          55.6583748
        ]
      },
      "id": "node/761283199"
    },
    {
      "type": "Feature",
      "properties": {
        "@id": "node/766827894",
        "bus": "yes",
        "highway": "bus_stop",
        "name": "Jernbane Allé",
        "network": "Movia",
        "network:wikidata": "Q3359392",
        "public_transport": "platform"
      },
      "geometry": {
        "type": "Point",
        "coordinates": [
          12.4928874,
          55.6834368
        ]
      },
      "id": "node/766827894"
    },
    {
      "type": "Feature",
      "properties": {
        "@id": "node/772496868",
        "bench": "yes",
        "bus": "yes",
        "highway": "bus_stop",
        "name": "Vandrerhjem",
        "network": "Movia",
        "network:wikidata": "Q3359392",
        "public_transport": "platform",
        "shelter": "yes"
      },
      "geometry": {
        "type": "Point",
        "coordinates": [
          12.5749102,
          55.6411929
        ]
      },
      "id": "node/772496868"
    },
    {
      "type": "Feature",
      "properties": {
        "@id": "node/772497653",
        "highway": "bus_stop",
        "name": "Vandrerhjem (Vejlands Allé)",
        "public_transport": "platform",
        "shelter": "no"
      },
      "geometry": {
        "type": "Point",
        "coordinates": [
          12.5768543,
          55.6408025
        ]
      },
      "id": "node/772497653"
    },
    {
      "type": "Feature",
      "properties": {
        "@id": "node/775584367",
        "bus": "yes",
        "highway": "bus_stop",
        "name": "Sundbyvester Plads, Amagerbrogade",
        "network": "Movia",
        "network:wikidata": "Q3359392",
        "public_transport": "platform",
        "shelter": "yes"
      },
      "geometry": {
        "type": "Point",
        "coordinates": [
          12.6143329,
          55.6465533
        ]
      },
      "id": "node/775584367"
    },
    {
      "type": "Feature",
      "properties": {
        "@id": "node/797852690",
        "bus": "yes",
        "highway": "bus_stop",
        "name": "Amager Hospital",
        "network": "Movia",
        "network:wikidata": "Q3359392",
        "public_transport": "platform"
      },
      "geometry": {
        "type": "Point",
        "coordinates": [
          12.6189203,
          55.6538755
        ]
      },
      "id": "node/797852690"
    },
    {
      "type": "Feature",
      "properties": {
        "@id": "node/826550198",
        "bus": "yes",
        "highway": "bus_stop",
        "name": "Glyptoteket",
        "network": "Movia",
        "network:wikidata": "Q3359392",
        "public_transport": "platform",
        "shelter": "yes"
      },
      "geometry": {
        "type": "Point",
        "coordinates": [
          12.5716273,
          55.6730632
        ]
      },
      "id": "node/826550198"
    },
    {
      "type": "Feature",
      "properties": {
        "@id": "node/826550783",
        "bench": "yes",
        "bus": "yes",
        "highway": "bus_stop",
        "name": "Glyptoteket",
        "network": "Movia",
        "network:wikidata": "Q3359392",
        "public_transport": "platform",
        "shelter": "yes"
      },
      "geometry": {
        "type": "Point",
        "coordinates": [
          12.5714648,
          55.6731313
        ]
      },
      "id": "node/826550783"
    },
    {
      "type": "Feature",
      "properties": {
        "@id": "node/870316309",
        "bus": "yes",
        "highway": "bus_stop",
        "name": "Isafjordsgade",
        "network": "Movia",
        "network:wikidata": "Q3359392",
        "public_transport": "platform",
        "shelter": "no"
      },
      "geometry": {
        "type": "Point",
        "coordinates": [
          12.5789743,
          55.6663503
        ]
      },
      "id": "node/870316309"
    },
    {
      "type": "Feature",
      "properties": {
        "@id": "node/870345756",
        "bus": "yes",
        "highway": "bus_stop",
        "name": "Isafjordsgade",
        "network": "Movia",
        "network:wikidata": "Q3359392",
        "public_transport": "platform",
        "shelter": "yes"
      },
      "geometry": {
        "type": "Point",
        "coordinates": [
          12.5787249,
          55.6666029
        ]
      },
      "id": "node/870345756"
    },
    {
      "type": "Feature",
      "properties": {
        "@id": "node/870375505",
        "bus": "yes",
        "highway": "bus_stop",
        "name": "Klaksvigsgade",
        "network": "Movia",
        "network:wikidata": "Q3359392",
        "public_transport": "stop_position"
      },
      "geometry": {
        "type": "Point",
        "coordinates": [
          12.5814524,
          55.6690442
        ]
      },
      "id": "node/870375505"
    },
    {
      "type": "Feature",
      "properties": {
        "@id": "node/870377894",
        "highway": "bus_stop",
        "name": "Langebro",
        "public_transport": "platform",
        "shelter": "no"
      },
      "geometry": {
        "type": "Point",
        "coordinates": [
          12.5797453,
          55.6691884
        ]
      },
      "id": "node/870377894"
    },
    {
      "type": "Feature",
      "properties": {
        "@id": "node/870394471",
        "highway": "bus_stop",
        "name": "66"
      },
      "geometry": {
        "type": "Point",
        "coordinates": [
          12.5738178,
          55.6690044
        ]
      },
      "id": "node/870394471"
    },
    {
      "type": "Feature",
      "properties": {
        "@id": "node/870408259",
        "bus": "yes",
        "highway": "bus_stop",
        "name": "Polititorvet",
        "network": "Movia",
        "network:wikidata": "Q3359392",
        "public_transport": "platform"
      },
      "geometry": {
        "type": "Point",
        "coordinates": [
          12.57049,
          55.6698179
        ]
      },
      "id": "node/870408259"
    },
    {
      "type": "Feature",
      "properties": {
        "@id": "node/870408397",
        "bus": "yes",
        "highway": "bus_stop",
        "name": "Polititorvet",
        "network": "Movia",
        "network:wikidata": "Q3359392",
        "public_transport": "platform"
      },
      "geometry": {
        "type": "Point",
        "coordinates": [
          12.5710061,
          55.6697795
        ]
      },
      "id": "node/870408397"
    },
    {
      "type": "Feature",
      "properties": {
        "@id": "node/870408870",
        "bus": "yes",
        "highway": "bus_stop",
        "name": "Polititorvet",
        "network": "Movia",
        "network:wikidata": "Q3359392",
        "public_transport": "platform"
      },
      "geometry": {
        "type": "Point",
        "coordinates": [
          12.5709064,
          55.668792
        ]
      },
      "id": "node/870408870"
    },
    {
      "type": "Feature",
      "properties": {
        "@id": "node/888297655",
        "bus": "yes",
        "highway": "bus_stop",
        "name": "Gasværksvej",
        "network": "Movia",
        "network:wikidata": "Q3359392",
        "public_transport": "platform"
      },
      "geometry": {
        "type": "Point",
        "coordinates": [
          12.5580621,
          55.6705615
        ]
      },
      "id": "node/888297655"
    },
    {
      "type": "Feature",
      "properties": {
        "@id": "node/888298339",
        "bus": "yes",
        "highway": "bus_stop",
        "name": "Gasværksvej",
        "network": "Movia",
        "network:wikidata": "Q3359392",
        "public_transport": "platform"
      },
      "geometry": {
        "type": "Point",
        "coordinates": [
          12.5581347,
          55.6707117
        ]
      },
      "id": "node/888298339"
    },
    {
      "type": "Feature",
      "properties": {
        "@id": "node/893936727",
        "bus": "yes",
        "highway": "bus_stop",
        "name": "Saxogade",
        "network": "Movia",
        "network:wikidata": "Q3359392",
        "public_transport": "platform"
      },
      "geometry": {
        "type": "Point",
        "coordinates": [
          12.5519179,
          55.6687311
        ]
      },
      "id": "node/893936727"
    },
    {
      "type": "Feature",
      "properties": {
        "@id": "node/893936794",
        "bus": "yes",
        "highway": "bus_stop",
        "name": "Saxogade",
        "network": "Movia",
        "network:wikidata": "Q3359392",
        "public_transport": "platform"
      },
      "geometry": {
        "type": "Point",
        "coordinates": [
          12.5517447,
          55.6687606
        ]
      },
      "id": "node/893936794"
    },
    {
      "type": "Feature",
      "properties": {
        "@id": "node/893938437",
        "bus": "yes",
        "highway": "bus_stop",
        "name": "Frederiksberg Allé (Vesterbrogade)",
        "network": "Movia",
        "network:wikidata": "Q3359392",
        "public_transport": "platform",
        "wheelchair": "yes"
      },
      "geometry": {
        "type": "Point",
        "coordinates": [
          12.550859,
          55.6726115
        ]
      },
      "id": "node/893938437"
    },
    {
      "type": "Feature",
      "properties": {
        "@id": "node/893953114",
        "bus": "yes",
        "highway": "bus_stop",
        "name": "Trommesalen (Vesterbrogade)",
        "network": "Movia",
        "network:wikidata": "Q3359392",
        "public_transport": "platform"
      },
      "geometry": {
        "type": "Point",
        "coordinates": [
          12.5603275,
          55.6731885
        ]
      },
      "id": "node/893953114"
    },
    {
      "type": "Feature",
      "properties": {
        "@id": "node/893955170",
        "bus": "yes",
        "highway": "bus_stop",
        "name": "Hovedbanegården (Vesterbrogade)",
        "network": "Movia",
        "network:wikidata": "Q3359392",
        "public_transport": "platform",
        "shelter": "yes"
      },
      "geometry": {
        "type": "Point",
        "coordinates": [
          12.5618844,
          55.6738403
        ]
      },
      "id": "node/893955170"
    },
    {
      "type": "Feature",
      "properties": {
        "@id": "node/893959059",
        "highway": "bus_stop",
        "name": "Sightseeingbus",
        "public_transport": "platform",
        "wheelchair": "yes"
      },
      "geometry": {
        "type": "Point",
        "coordinates": [
          12.5637259,
          55.6745732
        ]
      },
      "id": "node/893959059"
    },
    {
      "type": "Feature",
      "properties": {
        "@id": "node/893959838",
        "highway": "bus_stop",
        "name": "Vesterport st.",
        "public_transport": "platform",
        "wheelchair": "yes"
      },
      "geometry": {
        "type": "Point",
        "coordinates": [
          12.563631,
          55.6758736
        ]
      },
      "id": "node/893959838"
    },
    {
      "type": "Feature",
      "properties": {
        "@id": "node/893961294",
        "bus": "yes",
        "highway": "bus_stop",
        "name": "Rådhuspladsen St.",
        "network": "Movia",
        "network:wikidata": "Q3359392",
        "public_transport": "platform"
      },
      "geometry": {
        "type": "Point",
        "coordinates": [
          12.5664786,
          55.6772818
        ]
      },
      "id": "node/893961294"
    },
    {
      "type": "Feature",
      "properties": {
        "@id": "node/893961425",
        "highway": "bus_stop",
        "name": "Rådhuspladsen",
        "public_transport": "platform"
      },
      "geometry": {
        "type": "Point",
        "coordinates": [
          12.5666583,
          55.6772362
        ]
      },
      "id": "node/893961425"
    },
    {
      "type": "Feature",
      "properties": {
        "@id": "node/893961495",
        "bus": "yes",
        "highway": "bus_stop",
        "name": "Rådhuspladsen",
        "public_transport": "platform"
      },
      "geometry": {
        "type": "Point",
        "coordinates": [
          12.5668469,
          55.6770488
        ]
      },
      "id": "node/893961495"
    },
    {
      "type": "Feature",
      "properties": {
        "@id": "node/893966917",
        "highway": "bus_stop",
        "name": "Løngangstræde",
        "public_transport": "platform"
      },
      "geometry": {
        "type": "Point",
        "coordinates": [
          12.5713846,
          55.6753037
        ]
      },
      "id": "node/893966917"
    },
    {
      "type": "Feature",
      "properties": {
        "@id": "node/893998522",
        "highway": "bus_stop",
        "public_transport": "platform"
      },
      "geometry": {
        "type": "Point",
        "coordinates": [
          12.5800522,
          55.6785329
        ]
      },
      "id": "node/893998522"
    },
    {
      "type": "Feature",
      "properties": {
        "@id": "node/894013521",
        "highway": "bus_stop",
        "name": "Vandkunsten",
        "public_transport": "platform",
        "wheelchair": "yes"
      },
      "geometry": {
        "type": "Point",
        "coordinates": [
          12.5740565,
          55.676054
        ]
      },
      "id": "node/894013521"
    },
    {
      "type": "Feature",
      "properties": {
        "@id": "node/894014597",
        "bus": "yes",
        "highway": "bus_stop",
        "name": "Stormbroen, Nationalmuseet",
        "network": "Movia",
        "network:wikidata": "Q3359392",
        "public_transport": "platform",
        "shelter": "yes"
      },
      "geometry": {
        "type": "Point",
        "coordinates": [
          12.5761867,
          55.6758658
        ]
      },
      "id": "node/894014597"
    },
    {
      "type": "Feature",
      "properties": {
        "@id": "node/894224575",
        "highway": "bus_stop",
        "name": "Nyhavn",
        "public_transport": "platform"
      },
      "geometry": {
        "type": "Point",
        "coordinates": [
          12.5912182,
          55.679247
        ]
      },
      "id": "node/894224575"
    },
    {
      "type": "Feature",
      "properties": {
        "@id": "node/894229676",
        "bus": "yes",
        "highway": "bus_stop",
        "name": "Nyhavnsbroen",
        "public_transport": "platform"
      },
      "geometry": {
        "type": "Point",
        "coordinates": [
          12.5908948,
          55.6792268
        ]
      },
      "id": "node/894229676"
    },
    {
      "type": "Feature",
      "properties": {
        "@id": "node/894707157",
        "bus": "yes",
        "highway": "bus_stop",
        "name": "Stormbroen, Nationalmuseet",
        "network": "Movia",
        "network:wikidata": "Q3359392",
        "public_transport": "platform",
        "shelter": "yes"
      },
      "geometry": {
        "type": "Point",
        "coordinates": [
          12.5765851,
          55.675889
        ]
      },
      "id": "node/894707157"
    },
    {
      "type": "Feature",
      "properties": {
        "@id": "node/895759978",
        "bus": "yes",
        "highway": "bus_stop",
        "name": "Hovedbanegården (Vesterbrogade)",
        "network": "Movia",
        "network:wikidata": "Q3359392",
        "public_transport": "platform",
        "shelter": "yes",
        "wheelchair": "yes"
      },
      "geometry": {
        "type": "Point",
        "coordinates": [
          12.5636565,
          55.6740957
        ]
      },
      "id": "node/895759978"
    },
    {
      "type": "Feature",
      "properties": {
        "@id": "node/895778463",
        "bus": "yes",
        "highway": "bus_stop",
        "name": "Rådhuspladsen St. (Vesterbrogade)",
        "network": "Movia",
        "network:wikidata": "Q3359392",
        "public_transport": "platform",
        "ref": "47229",
        "shelter": "yes",
        "wheelchair": "yes"
      },
      "geometry": {
        "type": "Point",
        "coordinates": [
          12.5668976,
          55.6755064
        ]
      },
      "id": "node/895778463"
    },
    {
      "type": "Feature",
      "properties": {
        "@id": "node/898908117",
        "bus": "yes",
        "highway": "bus_stop",
        "name": "Dronningens Tværgade",
        "network": "Movia",
        "network:wikidata": "Q3359392",
        "public_transport": "platform"
      },
      "geometry": {
        "type": "Point",
        "coordinates": [
          12.5866807,
          55.683156
        ]
      },
      "id": "node/898908117"
    },
    {
      "type": "Feature",
      "properties": {
        "@id": "node/976743440",
        "bus": "yes",
        "highway": "bus_stop",
        "name": "Haraldsgade",
        "network": "Movia",
        "network:wikidata": "Q3359392",
        "public_transport": "platform",
        "shelter": "yes"
      },
      "geometry": {
        "type": "Point",
        "coordinates": [
          12.561327,
          55.7095272
        ]
      },
      "id": "node/976743440"
    },
    {
      "type": "Feature",
      "properties": {
        "@id": "node/977278845",
        "bus": "yes",
        "highway": "bus_stop",
        "name": "Amagerfælled Skole",
        "network": "Movia",
        "network:wikidata": "Q3359392",
        "public_transport": "platform",
        "shelter": "yes"
      },
      "geometry": {
        "type": "Point",
        "coordinates": [
          12.5953111,
          55.6623338
        ]
      },
      "id": "node/977278845"
    },
    {
      "type": "Feature",
      "properties": {
        "@id": "node/977310122",
        "bus": "yes",
        "highway": "bus_stop",
        "name": "Lyngbyvej",
        "network": "Movia",
        "network:wikidata": "Q3359392",
        "public_transport": "platform"
      },
      "geometry": {
        "type": "Point",
        "coordinates": [
          12.5603356,
          55.7099136
        ]
      },
      "id": "node/977310122"
    },
    {
      "type": "Feature",
      "properties": {
        "@id": "node/977310385",
        "bus": "yes",
        "highway": "bus_stop",
        "name": "Lyngbyvej",
        "network": "Movia",
        "network:wikidata": "Q3359392",
        "public_transport": "platform"
      },
      "geometry": {
        "type": "Point",
        "coordinates": [
          12.5616329,
          55.7099583
        ]
      },
      "id": "node/977310385"
    },
    {
      "type": "Feature",
      "properties": {
        "@id": "node/977310900",
        "bus": "yes",
        "highway": "bus_stop",
        "name": "Lersø Parkallé",
        "network": "Movia",
        "network:wikidata": "Q3359392",
        "public_transport": "platform"
      },
      "geometry": {
        "type": "Point",
        "coordinates": [
          12.5571913,
          55.7083759
        ]
      },
      "id": "node/977310900"
    },
    {
      "type": "Feature",
      "properties": {
        "@id": "node/977310901",
        "bus": "yes",
        "highway": "bus_stop",
        "name": "Lersø Parkallé",
        "network": "Movia",
        "network:wikidata": "Q3359392",
        "public_transport": "platform"
      },
      "geometry": {
        "type": "Point",
        "coordinates": [
          12.5570732,
          55.7080619
        ]
      },
      "id": "node/977310901"
    },
    {
      "type": "Feature",
      "properties": {
        "@id": "node/977314690",
        "bus": "yes",
        "highway": "bus_stop",
        "name": "Hans Knudsens Plads",
        "network": "Movia",
        "network:wikidata": "Q3359392",
        "public_transport": "platform"
      },
      "geometry": {
        "type": "Point",
        "coordinates": [
          12.5596291,
          55.7125916
        ]
      },
      "id": "node/977314690"
    },
    {
      "type": "Feature",
      "properties": {
        "@id": "node/977314691",
        "bus": "yes",
        "highway": "bus_stop",
        "name": "Hans Knudsens Plads",
        "network": "Movia",
        "network:wikidata": "Q3359392",
        "public_transport": "platform"
      },
      "geometry": {
        "type": "Point",
        "coordinates": [
          12.5600542,
          55.7129305
        ]
      },
      "id": "node/977314691"
    },
    {
      "type": "Feature",
      "properties": {
        "@id": "node/993950135",
        "highway": "bus_stop",
        "name": "Tietgensgade (Bernstorffsgade)",
        "ref": "1298"
      },
      "geometry": {
        "type": "Point",
        "coordinates": [
          12.5684144,
          55.67099
        ]
      },
      "id": "node/993950135"
    },
    {
      "type": "Feature",
      "properties": {
        "@id": "node/993950151",
        "bus": "yes",
        "highway": "bus_stop",
        "name": "Hovedbanegården (Tietgensgade)",
        "network:wikidata": "Q3359392",
        "public_transport": "platform",
        "ref": "7051",
        "shelter": "yes"
      },
      "geometry": {
        "type": "Point",
        "coordinates": [
          12.5667175,
          55.6712637
        ]
      },
      "id": "node/993950151"
    },
    {
      "type": "Feature",
      "properties": {
        "@id": "node/1002141431",
        "bus": "yes",
        "highway": "bus_stop",
        "name": "Svendborggade",
        "network": "Movia",
        "network:wikidata": "Q3359392",
        "public_transport": "platform",
        "shelter": "no"
      },
      "geometry": {
        "type": "Point",
        "coordinates": [
          12.583845,
          55.7093436
        ]
      },
      "id": "node/1002141431"
    },
    {
      "type": "Feature",
      "properties": {
        "@id": "node/1003096191",
        "bus": "yes",
        "highway": "bus_stop",
        "name": "Århusgade",
        "network": "Movia",
        "network:wikidata": "Q3359392",
        "public_transport": "platform",
        "shelter": "no"
      },
      "geometry": {
        "type": "Point",
        "coordinates": [
          12.5861743,
          55.7071939
        ]
      },
      "id": "node/1003096191"
    },
    {
      "type": "Feature",
      "properties": {
        "@id": "node/1051217431",
        "bus": "yes",
        "highway": "bus_stop",
        "name": "Dybbølsbro Station",
        "network": "Movia",
        "network:wikidata": "Q3359392",
        "public_transport": "stop_position"
      },
      "geometry": {
        "type": "Point",
        "coordinates": [
          12.5581278,
          55.6651403
        ]
      },
      "id": "node/1051217431"
    },
    {
      "type": "Feature",
      "properties": {
        "@id": "node/1052708322",
        "highway": "bus_stop",
        "public_transport": "platform"
      },
      "geometry": {
        "type": "Point",
        "coordinates": [
          12.5456655,
          55.643445
        ]
      },
      "id": "node/1052708322"
    },
    {
      "type": "Feature",
      "properties": {
        "@id": "node/1065991527",
        "highway": "bus_stop",
        "name": "33",
        "shelter": "no"
      },
      "geometry": {
        "type": "Point",
        "coordinates": [
          12.5866011,
          55.6213401
        ]
      },
      "id": "node/1065991527"
    },
    {
      "type": "Feature",
      "properties": {
        "@id": "node/1065991533",
        "bus": "yes",
        "highway": "bus_stop",
        "name": "Kongelundsvej",
        "network": "Movia",
        "network:wikidata": "Q3359392",
        "public_transport": "platform",
        "shelter": "yes"
      },
      "geometry": {
        "type": "Point",
        "coordinates": [
          12.5856141,
          55.6209782
        ]
      },
      "id": "node/1065991533"
    },
    {
      "type": "Feature",
      "properties": {
        "@id": "node/1158009569",
        "highway": "bus_stop",
        "public_transport": "platform"
      },
      "geometry": {
        "type": "Point",
        "coordinates": [
          12.5419612,
          55.69887
        ]
      },
      "id": "node/1158009569"
    },
    {
      "type": "Feature",
      "properties": {
        "@id": "node/1181499872",
        "bus": "yes",
        "highway": "bus_stop",
        "name": "Hovedbanegården, Tivoli",
        "network": "Movia",
        "network:wikidata": "Q3359392",
        "public_transport": "stop_position"
      },
      "geometry": {
        "type": "Point",
        "coordinates": [
          12.5662025,
          55.6728304
        ]
      },
      "id": "node/1181499872"
    },
    {
      "type": "Feature",
      "properties": {
        "@id": "node/1191099071",
        "bus": "yes",
        "highway": "bus_stop",
        "name": "Fengersvej",
        "network": "Movia",
        "network:wikidata": "Q3359392",
        "public_transport": "platform"
      },
      "geometry": {
        "type": "Point",
        "coordinates": [
          12.5052953,
          55.6609358
        ]
      },
      "id": "node/1191099071"
    },
    {
      "type": "Feature",
      "properties": {
        "@id": "node/1191119117",
        "bus": "yes",
        "highway": "bus_stop",
        "name": "Peder Hjorts Vej",
        "network": "Movia",
        "network:wikidata": "Q3359392",
        "public_transport": "platform"
      },
      "geometry": {
        "type": "Point",
        "coordinates": [
          12.5128963,
          55.6613391
        ]
      },
      "id": "node/1191119117"
    },
    {
      "type": "Feature",
      "properties": {
        "@id": "node/1191119122",
        "bus": "yes",
        "highway": "bus_stop",
        "name": "Hornemanns Vænge",
        "network": "Movia",
        "network:wikidata": "Q3359392",
        "public_transport": "platform"
      },
      "geometry": {
        "type": "Point",
        "coordinates": [
          12.4939777,
          55.6572061
        ]
      },
      "id": "node/1191119122"
    },
    {
      "type": "Feature",
      "properties": {
        "@id": "node/1191119126",
        "bus": "yes",
        "highway": "bus_stop",
        "name": "Toftegårds Plads",
        "network": "Movia",
        "network:wikidata": "Q3359392",
        "public_transport": "platform"
      },
      "geometry": {
        "type": "Point",
        "coordinates": [
          12.5180834,
          55.6615208
        ]
      },
      "id": "node/1191119126"
    },
    {
      "type": "Feature",
      "properties": {
        "@id": "node/1191119129",
        "bus": "yes",
        "highway": "bus_stop",
        "name": "Vigerslev Allé Skole",
        "network": "Movia",
        "network:wikidata": "Q3359392",
        "public_transport": "platform"
      },
      "geometry": {
        "type": "Point",
        "coordinates": [
          12.5077211,
          55.6611992
        ]
      },
      "id": "node/1191119129"
    },
    {
      "type": "Feature",
      "properties": {
        "@id": "node/1191119136",
        "bus": "yes",
        "highway": "bus_stop",
        "name": "Toftegårds Plads",
        "network": "Movia",
        "network:wikidata": "Q3359392",
        "public_transport": "platform"
      },
      "geometry": {
        "type": "Point",
        "coordinates": [
          12.518401,
          55.6618295
        ]
      },
      "id": "node/1191119136"
    },
    {
      "type": "Feature",
      "properties": {
        "@id": "node/1191119138",
        "bus": "yes",
        "highway": "bus_stop",
        "name": "Vigerslev Allé Skole",
        "network": "Movia",
        "network:wikidata": "Q3359392",
        "public_transport": "platform"
      },
      "geometry": {
        "type": "Point",
        "coordinates": [
          12.5095126,
          55.661205
        ]
      },
      "id": "node/1191119138"
    },
    {
      "type": "Feature",
      "properties": {
        "@id": "node/1191119141",
        "bus": "yes",
        "highway": "bus_stop",
        "name": "Peder Hjorts Vej",
        "network": "Movia",
        "network:wikidata": "Q3359392",
        "public_transport": "platform"
      },
      "geometry": {
        "type": "Point",
        "coordinates": [
          12.5115326,
          55.661417
        ]
      },
      "id": "node/1191119141"
    },
    {
      "type": "Feature",
      "properties": {
        "@id": "node/1191126867",
        "bench": "yes",
        "bus": "yes",
        "highway": "bus_stop",
        "name": "Fengersvej",
        "network": "Movia",
        "network:wikidata": "Q3359392",
        "public_transport": "platform",
        "shelter": "yes"
      },
      "geometry": {
        "type": "Point",
        "coordinates": [
          12.5038035,
          55.6609626
        ]
      },
      "id": "node/1191126867"
    },
    {
      "type": "Feature",
      "properties": {
        "@id": "node/1191126877",
        "bus": "yes",
        "highway": "bus_stop",
        "name": "Vigerslev Allé St.",
        "network": "Movia",
        "network:wikidata": "Q3359392",
        "public_transport": "platform"
      },
      "geometry": {
        "type": "Point",
        "coordinates": [
          12.498977,
          55.6600697
        ]
      },
      "id": "node/1191126877"
    },
    {
      "type": "Feature",
      "properties": {
        "@id": "node/1191126879",
        "bus": "yes",
        "highway": "bus_stop",
        "name": "Vigerslev Allé St.",
        "network": "Movia",
        "network:wikidata": "Q3359392",
        "public_transport": "platform"
      },
      "geometry": {
        "type": "Point",
        "coordinates": [
          12.4979703,
          55.6597663
        ]
      },
      "id": "node/1191126879"
    },
    {
      "type": "Feature",
      "properties": {
        "@id": "node/1200016415",
        "bench": "no",
        "bus": "yes",
        "highway": "bus_stop",
        "name": "Stefansgade",
        "network": "Movia",
        "network:wikidata": "Q3359392",
        "public_transport": "platform",
        "shelter": "no",
        "wheelchair": "yes"
      },
      "geometry": {
        "type": "Point",
        "coordinates": [
          12.5454508,
          55.6966399
        ]
      },
      "id": "node/1200016415"
    },
    {
      "type": "Feature",
      "properties": {
        "@id": "node/1200016416",
        "highway": "bus_stop",
        "name": "Stefansgade",
        "public_transport": "platform"
      },
      "geometry": {
        "type": "Point",
        "coordinates": [
          12.5445117,
          55.6972598
        ]
      },
      "id": "node/1200016416"
    },
    {
      "type": "Feature",
      "properties": {
        "@id": "node/1205566168",
        "bench": "yes",
        "bin": "yes",
        "bus": "yes",
        "highway": "bus_stop",
        "name": "Arsenaløen",
        "network": "Movia",
        "network:wikidata": "Q3359392",
        "passenger_information_display": "yes",
        "public_transport": "platform",
        "shelter": "yes"
      },
      "geometry": {
        "type": "Point",
        "coordinates": [
          12.6019159,
          55.6774346
        ]
      },
      "id": "node/1205566168"
    },
    {
      "type": "Feature",
      "properties": {
        "@id": "node/1205566193",
        "bus": "yes",
        "highway": "bus_stop",
        "name": "Arsenaløen",
        "network": "Movia",
        "network:wikidata": "Q3359392",
        "public_transport": "platform",
        "shelter": "no"
      },
      "geometry": {
        "type": "Point",
        "coordinates": [
          12.6020815,
          55.6778045
        ]
      },
      "id": "node/1205566193"
    },
    {
      "type": "Feature",
      "properties": {
        "@id": "node/1205571020",
        "bench": "yes",
        "bin": "yes",
        "bus": "yes",
        "highway": "bus_stop",
        "name": "Galionsvej, Operaen",
        "network": "Movia",
        "network:wikidata": "Q3359392",
        "passenger_information_display": "yes",
        "public_transport": "platform",
        "shelter": "yes",
        "tactile_paving": "no"
      },
      "geometry": {
        "type": "Point",
        "coordinates": [
          12.603099,
          55.6795306
        ]
      },
      "id": "node/1205571020"
    },
    {
      "type": "Feature",
      "properties": {
        "@id": "node/1205865785",
        "bus": "yes",
        "highway": "bus_stop",
        "name": "Skt. Annæ Gade",
        "network": "Movia",
        "network:wikidata": "Q3359392",
        "public_transport": "platform"
      },
      "geometry": {
        "type": "Point",
        "coordinates": [
          12.5939921,
          55.6721244
        ]
      },
      "id": "node/1205865785"
    },
    {
      "type": "Feature",
      "properties": {
        "@id": "node/1205865787",
        "highway": "bus_stop",
        "public_transport": "platform"
      },
      "geometry": {
        "type": "Point",
        "coordinates": [
          12.6010341,
          55.6763745
        ]
      },
      "id": "node/1205865787"
    },
    {
      "type": "Feature",
      "properties": {
        "@id": "node/1205865795",
        "bus": "yes",
        "highway": "bus_stop",
        "name": "Bodenhoffs Plads",
        "network": "Movia",
        "network:wikidata": "Q3359392",
        "public_transport": "platform"
      },
      "geometry": {
        "type": "Point",
        "coordinates": [
          12.5991812,
          55.6750533
        ]
      },
      "id": "node/1205865795"
    },
    {
      "type": "Feature",
      "properties": {
        "@id": "node/1205865798",
        "bus": "yes",
        "highway": "bus_stop",
        "name": "Christianshavn St.",
        "network": "Movia",
        "network:wikidata": "Q3359392",
        "public_transport": "platform",
        "shelter": "yes"
      },
      "geometry": {
        "type": "Point",
        "coordinates": [
          12.5917145,
          55.6721199
        ]
      },
      "id": "node/1205865798"
    },
    {
      "type": "Feature",
      "properties": {
        "@id": "node/1205865800",
        "bus": "yes",
        "highway": "bus_stop",
        "name": "Skt. Annæ Gade",
        "network": "Movia",
        "network:wikidata": "Q3359392",
        "public_transport": "platform"
      },
      "geometry": {
        "type": "Point",
        "coordinates": [
          12.5939209,
          55.6722485
        ]
      },
      "id": "node/1205865800"
    },
    {
      "type": "Feature",
      "properties": {
        "@id": "node/1205865801",
        "bus": "yes",
        "highway": "bus_stop",
        "name": "Knippelsbro",
        "network": "Movia",
        "network:wikidata": "Q3359392",
        "public_transport": "platform",
        "shelter": "yes"
      },
      "geometry": {
        "type": "Point",
        "coordinates": [
          12.5886356,
          55.6740592
        ]
      },
      "id": "node/1205865801"
    },
    {
      "type": "Feature",
      "properties": {
        "@id": "node/1205865802",
        "bus": "yes",
        "highway": "bus_stop",
        "name": "Christianshavn St.",
        "network": "Movia",
        "network:wikidata": "Q3359392",
        "public_transport": "platform",
        "shelter": "no"
      },
      "geometry": {
        "type": "Point",
        "coordinates": [
          12.5915645,
          55.6724036
        ]
      },
      "id": "node/1205865802"
    },
    {
      "type": "Feature",
      "properties": {
        "@id": "node/1206386446",
        "bus": "yes",
        "highway": "bus_stop",
        "name": "Knippelsbro",
        "network": "Movia",
        "network:wikidata": "Q3359392",
        "public_transport": "platform",
        "shelter": "no"
      },
      "geometry": {
        "type": "Point",
        "coordinates": [
          12.5894362,
          55.6733185
        ]
      },
      "id": "node/1206386446"
    },
    {
      "type": "Feature",
      "properties": {
        "@id": "node/1211228955",
        "bus": "yes",
        "highway": "bus_stop",
        "name": "Fabrikmestervej",
        "network": "Movia",
        "network:wikidata": "Q3359392",
        "public_transport": "platform"
      },
      "geometry": {
        "type": "Point",
        "coordinates": [
          12.6052426,
          55.6820332
        ]
      },
      "id": "node/1211228955"
    },
    {
      "type": "Feature",
      "properties": {
        "@id": "node/1212547869",
        "bus": "yes",
        "highway": "bus_stop",
        "name": "Galionsvej, Operaen",
        "network": "Movia",
        "network:wikidata": "Q3359392",
        "public_transport": "platform",
        "shelter": "no"
      },
      "geometry": {
        "type": "Point",
        "coordinates": [
          12.603318,
          55.6795533
        ]
      },
      "id": "node/1212547869"
    },
    {
      "type": "Feature",
      "properties": {
        "@id": "node/1212548237",
        "bus": "yes",
        "highway": "bus_stop",
        "name": "Fabrikmestervej",
        "network": "Movia",
        "network:wikidata": "Q3359392",
        "public_transport": "platform"
      },
      "geometry": {
        "type": "Point",
        "coordinates": [
          12.6056756,
          55.6822888
        ]
      },
      "id": "node/1212548237"
    },
    {
      "type": "Feature",
      "properties": {
        "@id": "node/1215791837",
        "highway": "bus_stop",
        "name": "Ålekistevej",
        "shelter": "no"
      },
      "geometry": {
        "type": "Point",
        "coordinates": [
          12.48439,
          55.6847221
        ]
      },
      "id": "node/1215791837"
    },
    {
      "type": "Feature",
      "properties": {
        "@id": "node/1227080465",
        "bus": "yes",
        "highway": "bus_stop",
        "name": "Sjællandsgade",
        "network": "Movia",
        "network:wikidata": "Q3359392",
        "public_transport": "platform"
      },
      "geometry": {
        "type": "Point",
        "coordinates": [
          12.552052,
          55.692277
        ]
      },
      "id": "node/1227080465"
    },
    {
      "type": "Feature",
      "properties": {
        "@id": "node/1227080467",
        "bus": "yes",
        "highway": "bus_stop",
        "name": "Kapelvej",
        "network": "Movia",
        "network:wikidata": "Q3359392",
        "public_transport": "platform"
      },
      "geometry": {
        "type": "Point",
        "coordinates": [
          12.5542062,
          55.6908374
        ]
      },
      "id": "node/1227080467"
    },
    {
      "type": "Feature",
      "properties": {
        "@id": "node/1227080468",
        "bus": "yes",
        "highway": "bus_stop",
        "name": "Sjællandsgade",
        "network": "Movia",
        "network:wikidata": "Q3359392",
        "public_transport": "platform"
      },
      "geometry": {
        "type": "Point",
        "coordinates": [
          12.551693,
          55.6923842
        ]
      },
      "id": "node/1227080468"
    },
    {
      "type": "Feature",
      "properties": {
        "@id": "node/1227080473",
        "bus": "yes",
        "highway": "bus_stop",
        "name": "Kapelvej",
        "network": "Movia",
        "network:wikidata": "Q3359392",
        "public_transport": "platform"
      },
      "geometry": {
        "type": "Point",
        "coordinates": [
          12.5548781,
          55.6902289
        ]
      },
      "id": "node/1227080473"
    },
    {
      "type": "Feature",
      "properties": {
        "@id": "node/1271842805",
        "bus": "yes",
        "highway": "bus_stop",
        "name": "Emdrup Torv",
        "network": "Movia",
        "network:wikidata": "Q3359392",
        "public_transport": "platform"
      },
      "geometry": {
        "type": "Point",
        "coordinates": [
          12.529946,
          55.7230288
        ]
      },
      "id": "node/1271842805"
    },
    {
      "type": "Feature",
      "properties": {
        "@id": "node/1271842807",
        "bus": "yes",
        "highway": "bus_stop",
        "name": "Emdrup Torv",
        "network": "Movia",
        "network:wikidata": "Q3359392",
        "public_transport": "platform"
      },
      "geometry": {
        "type": "Point",
        "coordinates": [
          12.5297153,
          55.7227826
        ]
      },
      "id": "node/1271842807"
    },
    {
      "type": "Feature",
      "properties": {
        "@id": "node/1306239503",
        "bus": "yes",
        "highway": "bus_stop",
        "name": "Valby St., broen",
        "network": "Movia",
        "network:wikidata": "Q3359392",
        "public_transport": "platform",
        "shelter": "yes"
      },
      "geometry": {
        "type": "Point",
        "coordinates": [
          12.5163916,
          55.6638597
        ]
      },
      "id": "node/1306239503"
    },
    {
      "type": "Feature",
      "properties": {
        "@id": "node/1307890141",
        "highway": "bus_stop",
        "name": "Lundevangen",
        "network": "Movia",
        "network:wikidata": "Q3359392",
        "shelter": "no"
      },
      "geometry": {
        "type": "Point",
        "coordinates": [
          12.5715164,
          55.7271604
        ]
      },
      "id": "node/1307890141"
    },
    {
      "type": "Feature",
      "properties": {
        "@id": "node/1307890142",
        "highway": "bus_stop",
        "name": "Lundevangen",
        "network": "Movia",
        "network:wikidata": "Q3359392",
        "shelter": "no"
      },
      "geometry": {
        "type": "Point",
        "coordinates": [
          12.5730222,
          55.7268311
        ]
      },
      "id": "node/1307890142"
    },
    {
      "type": "Feature",
      "properties": {
        "@id": "node/1307890146",
        "bench": "yes",
        "bin": "yes",
        "bus": "yes",
        "highway": "bus_stop",
        "name": "Tuborg Boulevard",
        "network": "Movia",
        "network:wikidata": "Q3359392",
        "passenger_information_display": "yes",
        "public_transport": "platform",
        "shelter": "yes",
        "tactile_paving": "yes"
      },
      "geometry": {
        "type": "Point",
        "coordinates": [
          12.5756945,
          55.7272679
        ]
      },
      "id": "node/1307890146"
    },
    {
      "type": "Feature",
      "properties": {
        "@id": "node/1308015322",
        "bus": "yes",
        "highway": "bus_stop",
        "name": "Gl. Vartov Vej",
        "network": "Movia",
        "network:wikidata": "Q3359392",
        "passenger_information_display": "yes",
        "public_transport": "platform",
        "shelter": "yes",
        "tactile_paving": "yes"
      },
      "geometry": {
        "type": "Point",
        "coordinates": [
          12.5774049,
          55.7230243
        ]
      },
      "id": "node/1308015322"
    },
    {
      "type": "Feature",
      "properties": {
        "@id": "node/1308015323",
        "bus": "yes",
        "highway": "bus_stop",
        "name": "Svanemøllen St.",
        "network": "Movia",
        "network:wikidata": "Q3359392",
        "passenger_information_display": "yes",
        "public_transport": "platform",
        "shelter": "yes",
        "tactile_paving": "no"
      },
      "geometry": {
        "type": "Point",
        "coordinates": [
          12.5773715,
          55.7152777
        ]
      },
      "id": "node/1308015323"
    },
    {
      "type": "Feature",
      "properties": {
        "@id": "node/1308015324",
        "bus": "yes",
        "highway": "bus_stop",
        "name": "Gl. Vartov Vej",
        "network": "Movia",
        "network:wikidata": "Q3359392",
        "public_transport": "platform",
        "shelter": "yes",
        "tactile_paving": "yes"
      },
      "geometry": {
        "type": "Point",
        "coordinates": [
          12.5776438,
          55.723865
        ]
      },
      "id": "node/1308015324"
    },
    {
      "type": "Feature",
      "properties": {
        "@id": "node/1308015326",
        "bus": "yes",
        "highway": "bus_stop",
        "name": "Strandøre",
        "network": "Movia",
        "network:wikidata": "Q3359392",
        "public_transport": "platform",
        "shelter": "yes"
      },
      "geometry": {
        "type": "Point",
        "coordinates": [
          12.5774965,
          55.7212185
        ]
      },
      "id": "node/1308015326"
    },
    {
      "type": "Feature",
      "properties": {
        "@id": "node/1308015327",
        "bus": "yes",
        "check_date": "2018-04-17",
        "highway": "bus_stop",
        "name": "Strandøre",
        "network": "Movia",
        "network:wikidata": "Q3359392",
        "passenger_information_display": "yes",
        "public_transport": "platform",
        "ref": "1447",
        "shelter": "yes"
      },
      "geometry": {
        "type": "Point",
        "coordinates": [
          12.5769848,
          55.7210146
        ]
      },
      "id": "node/1308015327"
    },
    {
      "type": "Feature",
      "properties": {
        "@id": "node/1308015329",
        "bus": "yes",
        "check_date": "2018-06-12",
        "highway": "bus_stop",
        "name": "Strandvænget",
        "network": "Movia",
        "network:wikidata": "Q3359392",
        "public_transport": "platform",
        "ref": "1445"
      },
      "geometry": {
        "type": "Point",
        "coordinates": [
          12.5775113,
          55.7172336
        ]
      },
      "id": "node/1308015329"
    },
    {
      "type": "Feature",
      "properties": {
        "@id": "node/1308015331",
        "bus": "yes",
        "check_date": "2018-06-16",
        "highway": "bus_stop",
        "name": "Svanemøllen St., Sløjfen",
        "network": "Movia",
        "network:wikidata": "Q3359392",
        "passenger_information_display": "yes",
        "public_transport": "platform",
        "ref": "1621",
        "shelter": "yes",
        "tactile_paving": "no"
      },
      "geometry": {
        "type": "Point",
        "coordinates": [
          12.57799,
          55.715019
        ]
      },
      "id": "node/1308015331"
    },
    {
      "type": "Feature",
      "properties": {
        "@id": "node/1308015332",
        "bus": "yes",
        "check_date": "2018-06-16",
        "highway": "bus_stop",
        "name": "Svanemøllen St.",
        "operator": "AFA JCDecaux;Movia",
        "public_transport": "platform",
        "ref": "1623",
        "shelter": "yes",
        "tactile_paving": "no"
      },
      "geometry": {
        "type": "Point",
        "coordinates": [
          12.5778331,
          55.7153836
        ]
      },
      "id": "node/1308015332"
    },
    {
      "type": "Feature",
      "properties": {
        "@id": "node/1308065506",
        "highway": "bus_stop",
        "name": "Kvæesthusbroen",
        "public_transport": "platform",
        "shelter": "no"
      },
      "geometry": {
        "type": "Point",
        "coordinates": [
          12.5940831,
          55.680645
        ]
      },
      "id": "node/1308065506"
    },
    {
      "type": "Feature",
      "properties": {
        "@id": "node/1308065513",
        "bus": "yes",
        "highway": "bus_stop",
        "name": "Poul Henningsens Plads (Jagtvej)",
        "network": "Movia",
        "network:wikidata": "Q3359392",
        "public_transport": "platform",
        "shelter": "yes",
        "tactile_paving": "yes",
        "wheelchair": "no"
      },
      "geometry": {
        "type": "Point",
        "coordinates": [
          12.5771417,
          55.7084884
        ]
      },
      "id": "node/1308065513"
    },
    {
      "type": "Feature",
      "properties": {
        "@id": "node/1308065516",
        "bus": "yes",
        "highway": "bus_stop",
        "name": "Trianglen St.",
        "network": "Movia",
        "network:wikidata": "Q3359392",
        "public_transport": "platform",
        "shelter": "yes",
        "tactile_paving": "no",
        "wheelchair": "limited"
      },
      "geometry": {
        "type": "Point",
        "coordinates": [
          12.5777896,
          55.6995221
        ]
      },
      "id": "node/1308065516"
    },
    {
      "type": "Feature",
      "properties": {
        "@id": "node/1308065520",
        "alt_name": "Oslo Plads",
        "bench": "yes",
        "bus": "yes",
        "highway": "bus_stop",
        "name": "Østerport St.",
        "network": "Movia",
        "network:wikidata": "Q3359392",
        "public_transport": "platform",
        "shelter": "yes"
      },
      "geometry": {
        "type": "Point",
        "coordinates": [
          12.5876078,
          55.6920573
        ]
      },
      "id": "node/1308065520"
    },
    {
      "type": "Feature",
      "properties": {
        "@id": "node/1308065522",
        "bus": "yes",
        "highway": "bus_stop",
        "name": "Østerport St. (Oslo Plads)",
        "network": "Movia",
        "network:wikidata": "Q3359392",
        "public_transport": "platform"
      },
      "geometry": {
        "type": "Point",
        "coordinates": [
          12.5868612,
          55.6920356
        ]
      },
      "id": "node/1308065522"
    },
    {
      "type": "Feature",
      "properties": {
        "@id": "node/1308065546",
        "bus": "yes",
        "highway": "bus_stop",
        "name": "Holmens Kirke",
        "network": "Movia",
        "network:wikidata": "Q3359392",
        "public_transport": "platform"
      },
      "geometry": {
        "type": "Point",
        "coordinates": [
          12.5836329,
          55.6769115
        ]
      },
      "id": "node/1308065546"
    },
    {
      "type": "Feature",
      "properties": {
        "@id": "node/1308065553",
        "bus": "yes",
        "highway": "bus_stop",
        "name": "Poul Henningsens Plads St.",
        "network": "Movia",
        "network:wikidata": "Q3359392",
        "public_transport": "platform"
      },
      "geometry": {
        "type": "Point",
        "coordinates": [
          12.5777195,
          55.7095735
        ]
      },
      "id": "node/1308065553"
    },
    {
      "type": "Feature",
      "properties": {
        "@id": "node/1308065569",
        "alt_name": "Dag Hammarskjölds Allé",
        "bus": "yes",
        "highway": "bus_stop",
        "name": "Lille Triangel",
        "operator": "AFA JCDecaux;Movia",
        "public_transport": "platform",
        "ref": "1090"
      },
      "geometry": {
        "type": "Point",
        "coordinates": [
          12.5805176,
          55.6953568
        ]
      },
      "id": "node/1308065569"
    },
    {
      "type": "Feature",
      "properties": {
        "@id": "node/1308065585",
        "bus": "yes",
        "highway": "bus_stop",
        "name": "Nygårdsvej",
        "network": "Movia",
        "network:wikidata": "Q3359392",
        "passenger_information_display": "yes",
        "public_transport": "platform",
        "shelter": "yes",
        "tactile_paving": "no"
      },
      "geometry": {
        "type": "Point",
        "coordinates": [
          12.5777341,
          55.7132464
        ]
      },
      "id": "node/1308065585"
    },
    {
      "type": "Feature",
      "properties": {
        "@id": "node/1308065590",
        "bus": "yes",
        "highway": "bus_stop",
        "name": "Kongens Nytorv St.",
        "network": "Movia",
        "network:wikidata": "Q3359392",
        "public_transport": "platform",
        "wheelchair": "yes"
      },
      "geometry": {
        "type": "Point",
        "coordinates": [
          12.5855109,
          55.6789387
        ]
      },
      "id": "node/1308065590"
    },
    {
      "type": "Feature",
      "properties": {
        "@id": "node/1308065594",
        "bus": "yes",
        "highway": "bus_stop",
        "name": "Lille Triangel",
        "network": "Movia",
        "network:wikidata": "Q3359392",
        "public_transport": "platform"
      },
      "geometry": {
        "type": "Point",
        "coordinates": [
          12.5808477,
          55.6955759
        ]
      },
      "id": "node/1308065594"
    },
    {
      "type": "Feature",
      "properties": {
        "@id": "node/1308065596",
        "bench": "yes",
        "bus": "yes",
        "highway": "bus_stop",
        "name": "Kongens Nytorv St.",
        "network": "Movia",
        "network:wikidata": "Q3359392",
        "public_transport": "platform",
        "shelter": "yes"
      },
      "geometry": {
        "type": "Point",
        "coordinates": [
          12.5857825,
          55.6791331
        ]
      },
      "id": "node/1308065596"
    },
    {
      "type": "Feature",
      "properties": {
        "@id": "node/1308065604",
        "bench": "yes",
        "bus": "yes",
        "highway": "bus_stop",
        "name": "Holmens Kirke",
        "network": "Movia",
        "network:wikidata": "Q3359392",
        "public_transport": "platform",
        "shelter": "yes"
      },
      "geometry": {
        "type": "Point",
        "coordinates": [
          12.5846541,
          55.6773895
        ]
      },
      "id": "node/1308065604"
    },
    {
      "type": "Feature",
      "properties": {
        "@id": "node/1308199151",
        "bus": "yes",
        "highway": "bus_stop",
        "name": "Vigerslev Kirke",
        "network": "Movia",
        "network:wikidata": "Q3359392",
        "public_transport": "platform"
      },
      "geometry": {
        "type": "Point",
        "coordinates": [
          12.4900491,
          55.658627
        ]
      },
      "id": "node/1308199151"
    },
    {
      "type": "Feature",
      "properties": {
        "@id": "node/1308199163",
        "bus": "yes",
        "highway": "bus_stop",
        "name": "Gladbovej",
        "network": "Movia",
        "network:wikidata": "Q3359392",
        "public_transport": "platform"
      },
      "geometry": {
        "type": "Point",
        "coordinates": [
          12.493755,
          55.6595885
        ]
      },
      "id": "node/1308199163"
    },
    {
      "type": "Feature",
      "properties": {
        "@id": "node/1308199188",
        "bus": "yes",
        "highway": "bus_stop",
        "name": "Carlsberg St.",
        "network": "Movia",
        "network:wikidata": "Q3359392",
        "public_transport": "platform"
      },
      "geometry": {
        "type": "Point",
        "coordinates": [
          12.5361552,
          55.6629983
        ]
      },
      "id": "node/1308199188"
    },
    {
      "type": "Feature",
      "properties": {
        "@id": "node/1308199195",
        "bus": "yes",
        "highway": "bus_stop",
        "name": "Sjælør Boulevard",
        "network": "Movia",
        "network:wikidata": "Q3359392",
        "public_transport": "platform"
      },
      "geometry": {
        "type": "Point",
        "coordinates": [
          12.5232413,
          55.6625609
        ]
      },
      "id": "node/1308199195"
    },
    {
      "type": "Feature",
      "properties": {
        "@id": "node/1308199201",
        "bus": "yes",
        "highway": "bus_stop",
        "name": "Vigerslev Kirke",
        "network": "Movia",
        "network:wikidata": "Q3359392",
        "public_transport": "platform"
      },
      "geometry": {
        "type": "Point",
        "coordinates": [
          12.4898274,
          55.6586833
        ]
      },
      "id": "node/1308199201"
    },
    {
      "type": "Feature",
      "properties": {
        "@id": "node/1308199207",
        "bus": "yes",
        "highway": "bus_stop",
        "name": "Vigerslev Allé",
        "network": "Movia",
        "network:wikidata": "Q3359392",
        "public_transport": "platform"
      },
      "geometry": {
        "type": "Point",
        "coordinates": [
          12.524486,
          55.6619026
        ]
      },
      "id": "node/1308199207"
    },
    {
      "type": "Feature",
      "properties": {
        "@id": "node/1308199243",
        "bus": "yes",
        "highway": "bus_stop",
        "name": "Gladbovej",
        "network": "Movia",
        "network:wikidata": "Q3359392",
        "public_transport": "platform"
      },
      "geometry": {
        "type": "Point",
        "coordinates": [
          12.4940361,
          55.6596756
        ]
      },
      "id": "node/1308199243"
    },
    {
      "type": "Feature",
      "properties": {
        "@id": "node/1308199253",
        "bus": "yes",
        "highway": "bus_stop",
        "name": "Sjælør Boulevard",
        "network": "Movia",
        "network:wikidata": "Q3359392",
        "public_transport": "platform"
      },
      "geometry": {
        "type": "Point",
        "coordinates": [
          12.5250792,
          55.6625512
        ]
      },
      "id": "node/1308199253"
    },
    {
      "type": "Feature",
      "properties": {
        "@id": "node/1308199260",
        "highway": "bus_stop",
        "name": "Løngangstræde",
        "public_transport": "platform"
      },
      "geometry": {
        "type": "Point",
        "coordinates": [
          12.5711914,
          55.6752794
        ]
      },
      "id": "node/1308199260"
    },
    {
      "type": "Feature",
      "properties": {
        "@id": "node/1308199266",
        "bus": "yes",
        "highway": "bus_stop",
        "name": "Toftegårds Plads",
        "network": "Movia",
        "network:wikidata": "Q3359392",
        "public_transport": "platform",
        "shelter": "no"
      },
      "geometry": {
        "type": "Point",
        "coordinates": [
          12.5161016,
          55.6609744
        ]
      },
      "id": "node/1308199266"
    },
    {
      "type": "Feature",
      "properties": {
        "@id": "node/1308283121",
        "bus": "yes",
        "highway": "bus_stop",
        "name": "Fuglegavl",
        "network": "Movia",
        "network:wikidata": "Q3359392",
        "public_transport": "platform"
      },
      "geometry": {
        "type": "Point",
        "coordinates": [
          12.4854181,
          55.7225106
        ]
      },
      "id": "node/1308283121"
    },
    {
      "type": "Feature",
      "properties": {
        "@id": "node/1308283122",
        "bus": "yes",
        "highway": "bus_stop",
        "name": "Veksøvej",
        "network": "Movia",
        "network:wikidata": "Q3359392",
        "public_transport": "platform"
      },
      "geometry": {
        "type": "Point",
        "coordinates": [
          12.4864508,
          55.7073915
        ]
      },
      "id": "node/1308283122"
    },
    {
      "type": "Feature",
      "properties": {
        "@id": "node/1308283123",
        "bus": "yes",
        "highway": "bus_stop",
        "name": "Husumvold Kirke",
        "network": "Movia",
        "network:wikidata": "Q3359392",
        "public_transport": "platform"
      },
      "geometry": {
        "type": "Point",
        "coordinates": [
          12.4854074,
          55.7097324
        ]
      },
      "id": "node/1308283123"
    },
    {
      "type": "Feature",
      "properties": {
        "@id": "node/1308283132",
        "bus": "yes",
        "highway": "bus_stop",
        "name": "Tingbjerg Skole",
        "network": "Movia",
        "network:wikidata": "Q3359392",
        "public_transport": "platform"
      },
      "geometry": {
        "type": "Point",
        "coordinates": [
          12.4855254,
          55.7173944
        ]
      },
      "id": "node/1308283132"
    },
    {
      "type": "Feature",
      "properties": {
        "@id": "node/1308283136",
        "highway": "bus_stop",
        "name": "Terrasserne",
        "public_transport": "platform"
      },
      "geometry": {
        "type": "Point",
        "coordinates": [
          12.4891437,
          55.7171164
        ]
      },
      "id": "node/1308283136"
    },
    {
      "type": "Feature",
      "properties": {
        "@id": "node/1308283137",
        "bus": "yes",
        "highway": "bus_stop",
        "name": "Tingbjerg Skole",
        "network": "Movia",
        "network:wikidata": "Q3359392",
        "public_transport": "platform"
      },
      "geometry": {
        "type": "Point",
        "coordinates": [
          12.4845598,
          55.7177298
        ]
      },
      "id": "node/1308283137"
    },
    {
      "type": "Feature",
      "properties": {
        "@id": "node/1308283138",
        "bus": "yes",
        "highway": "bus_stop",
        "name": "Energicenter Voldparken",
        "network": "Movia",
        "network:wikidata": "Q3359392",
        "public_transport": "platform"
      },
      "geometry": {
        "type": "Point",
        "coordinates": [
          12.4855941,
          55.7125117
        ]
      },
      "id": "node/1308283138"
    },
    {
      "type": "Feature",
      "properties": {
        "@id": "node/1308283143",
        "bus": "yes",
        "highway": "bus_stop",
        "name": "Husumvold Kirke",
        "network": "Movia",
        "network:wikidata": "Q3359392",
        "public_transport": "platform"
      },
      "geometry": {
        "type": "Point",
        "coordinates": [
          12.4857983,
          55.7091948
        ]
      },
      "id": "node/1308283143"
    },
    {
      "type": "Feature",
      "properties": {
        "@id": "node/1308283146",
        "bench": "no",
        "covered": "no",
        "highway": "bus_stop",
        "name": "Brønshøj Torv",
        "network": "Linie 10",
        "public_transport": "platform",
        "shelter": "no"
      },
      "geometry": {
        "type": "Point",
        "coordinates": [
          12.4992181,
          55.703766
        ]
      },
      "id": "node/1308283146"
    },
    {
      "type": "Feature",
      "properties": {
        "@id": "node/1308283148",
        "bus": "yes",
        "highway": "bus_stop",
        "name": "Fuglegavl",
        "network": "Movia",
        "network:wikidata": "Q3359392",
        "public_transport": "platform"
      },
      "geometry": {
        "type": "Point",
        "coordinates": [
          12.4859143,
          55.7222998
        ]
      },
      "id": "node/1308283148"
    },
    {
      "type": "Feature",
      "properties": {
        "@id": "node/1308283150",
        "bus": "yes",
        "highway": "bus_stop",
        "name": "Brønshøj Torv",
        "network": "Movia",
        "network:wikidata": "Q3359392",
        "public_transport": "platform"
      },
      "geometry": {
        "type": "Point",
        "coordinates": [
          12.4985304,
          55.7044487
        ]
      },
      "id": "node/1308283150"
    },
    {
      "type": "Feature",
      "properties": {
        "@id": "node/1308283151",
        "bus": "yes",
        "highway": "bus_stop",
        "name": "Terrasserne",
        "network": "Movia",
        "network:wikidata": "Q3359392",
        "public_transport": "platform"
      },
      "geometry": {
        "type": "Point",
        "coordinates": [
          12.4882211,
          55.7171104
        ]
      },
      "id": "node/1308283151"
    },
    {
      "type": "Feature",
      "properties": {
        "@id": "node/1308283154",
        "bus": "yes",
        "highway": "bus_stop",
        "name": "Tingbjerg Kirke",
        "network": "Movia",
        "network:wikidata": "Q3359392",
        "public_transport": "platform"
      },
      "geometry": {
        "type": "Point",
        "coordinates": [
          12.4801047,
          55.7187028
        ]
      },
      "id": "node/1308283154"
    },
    {
      "type": "Feature",
      "properties": {
        "@id": "node/1308283160",
        "bus": "yes",
        "highway": "bus_stop",
        "name": "Tingbjerg Kirke",
        "network": "Movia",
        "network:wikidata": "Q3359392",
        "public_transport": "platform"
      },
      "geometry": {
        "type": "Point",
        "coordinates": [
          12.4809711,
          55.7185895
        ]
      },
      "id": "node/1308283160"
    },
    {
      "type": "Feature",
      "properties": {
        "@id": "node/1308283163",
        "bus": "yes",
        "highway": "bus_stop",
        "name": "Valløvej",
        "network": "Movia",
        "network:wikidata": "Q3359392",
        "public_transport": "platform"
      },
      "geometry": {
        "type": "Point",
        "coordinates": [
          12.4978729,
          55.7020973
        ]
      },
      "id": "node/1308283163"
    },
    {
      "type": "Feature",
      "properties": {
        "@id": "node/1308283164",
        "bus": "yes",
        "highway": "bus_stop",
        "name": "Arkaderne",
        "network": "Movia",
        "network:wikidata": "Q3359392",
        "public_transport": "platform"
      },
      "geometry": {
        "type": "Point",
        "coordinates": [
          12.4813707,
          55.7215863
        ]
      },
      "id": "node/1308283164"
    },
    {
      "type": "Feature",
      "properties": {
        "@id": "node/1308283167",
        "bus": "yes",
        "highway": "bus_stop",
        "name": "Tingbjerg (Gavlhusvej)",
        "network": "Movia",
        "network:wikidata": "Q3359392",
        "public_transport": "platform"
      },
      "geometry": {
        "type": "Point",
        "coordinates": [
          12.4901375,
          55.7211018
        ]
      },
      "id": "node/1308283167"
    },
    {
      "type": "Feature",
      "properties": {
        "@id": "node/1308283169",
        "bus": "yes",
        "highway": "bus_stop",
        "name": "Valløvej",
        "network": "Movia",
        "network:wikidata": "Q3359392",
        "public_transport": "platform"
      },
      "geometry": {
        "type": "Point",
        "coordinates": [
          12.4976611,
          55.701944
        ]
      },
      "id": "node/1308283169"
    },
    {
      "type": "Feature",
      "properties": {
        "@id": "node/1308283171",
        "bus": "yes",
        "highway": "bus_stop",
        "name": "Veksøvej",
        "network": "Movia",
        "network:wikidata": "Q3359392",
        "public_transport": "platform"
      },
      "geometry": {
        "type": "Point",
        "coordinates": [
          12.4881003,
          55.7065989
        ]
      },
      "id": "node/1308283171"
    },
    {
      "type": "Feature",
      "properties": {
        "@id": "node/1308283174",
        "bus": "yes",
        "highway": "bus_stop",
        "name": "Arkaderne",
        "network": "Movia",
        "network:wikidata": "Q3359392",
        "public_transport": "platform"
      },
      "geometry": {
        "type": "Point",
        "coordinates": [
          12.4809053,
          55.7213156
        ]
      },
      "id": "node/1308283174"
    },
    {
      "type": "Feature",
      "properties": {
        "@id": "node/1308283177",
        "bus": "yes",
        "highway": "bus_stop",
        "name": "Brønshøj Torv",
        "network": "Movia",
        "network:wikidata": "Q3359392",
        "public_transport": "platform"
      },
      "geometry": {
        "type": "Point",
        "coordinates": [
          12.4984364,
          55.704667
        ]
      },
      "id": "node/1308283177"
    },
    {
      "type": "Feature",
      "properties": {
        "@id": "node/1309139717",
        "bus": "yes",
        "highway": "bus_stop",
        "name": "Rødkildevej",
        "network": "Movia",
        "network:wikidata": "Q3359392",
        "public_transport": "platform"
      },
      "geometry": {
        "type": "Point",
        "coordinates": [
          12.5070308,
          55.6961735
        ]
      },
      "id": "node/1309139717"
    },
    {
      "type": "Feature",
      "properties": {
        "@id": "node/1309139718",
        "bus": "yes",
        "highway": "bus_stop",
        "name": "Vester Farimagsgade",
        "network": "Movia",
        "network:wikidata": "Q3359392",
        "public_transport": "platform",
        "shelter": "yes",
        "wheelchair": "yes"
      },
      "geometry": {
        "type": "Point",
        "coordinates": [
          12.5631897,
          55.6796596
        ]
      },
      "id": "node/1309139718"
    },
    {
      "type": "Feature",
      "properties": {
        "@id": "node/1309139719",
        "bus": "yes",
        "highway": "bus_stop",
        "name": "Børsen",
        "network": "Movia",
        "network:wikidata": "Q3359392",
        "public_transport": "platform"
      },
      "geometry": {
        "type": "Point",
        "coordinates": [
          12.5825882,
          55.6763226
        ]
      },
      "id": "node/1309139719"
    },
    {
      "type": "Feature",
      "properties": {
        "@id": "node/1309139720",
        "highway": "bus_stop",
        "name": "Vodroffsvej",
        "public_transport": "platform"
      },
      "geometry": {
        "type": "Point",
        "coordinates": [
          12.557018,
          55.6818221
        ]
      },
      "id": "node/1309139720"
    },
    {
      "type": "Feature",
      "properties": {
        "@id": "node/1309139721",
        "bus": "yes",
        "highway": "bus_stop",
        "name": "Rødkildevej",
        "network": "Movia",
        "network:wikidata": "Q3359392",
        "public_transport": "platform"
      },
      "geometry": {
        "type": "Point",
        "coordinates": [
          12.5079255,
          55.6958706
        ]
      },
      "id": "node/1309139721"
    },
    {
      "type": "Feature",
      "properties": {
        "@id": "node/1309139722",
        "bus": "yes",
        "highway": "bus_stop",
        "name": "Grøndal St.",
        "network": "Movia",
        "network:wikidata": "Q3359392",
        "public_transport": "platform"
      },
      "geometry": {
        "type": "Point",
        "coordinates": [
          12.5158382,
          55.6910999
        ]
      },
      "id": "node/1309139722"
    },
    {
      "type": "Feature",
      "properties": {
        "@id": "node/1309139723",
        "highway": "bus_stop",
        "name": "Vodroffsvej",
        "public_transport": "platform"
      },
      "geometry": {
        "type": "Point",
        "coordinates": [
          12.5570985,
          55.6817859
        ]
      },
      "id": "node/1309139723"
    },
    {
      "type": "Feature",
      "properties": {
        "@id": "node/1309139725",
        "bus": "yes",
        "highway": "bus_stop",
        "name": "Grøndal St.",
        "network": "Movia",
        "network:wikidata": "Q3359392",
        "public_transport": "platform"
      },
      "geometry": {
        "type": "Point",
        "coordinates": [
          12.5162402,
          55.6906518
        ]
      },
      "id": "node/1309139725"
    },
    {
      "type": "Feature",
      "properties": {
        "@id": "node/1309144505",
        "highway": "bus_stop",
        "name": "Christmas Møllers Plads",
        "public_transport": "platform"
      },
      "geometry": {
        "type": "Point",
        "coordinates": [
          12.5965438,
          55.6682837
        ]
      },
      "id": "node/1309144505"
    },
    {
      "type": "Feature",
      "properties": {
        "@id": "node/1309144509",
        "highway": "bus_stop",
        "name": "Christmas Møllers Plads",
        "public_transport": "platform"
      },
      "geometry": {
        "type": "Point",
        "coordinates": [
          12.5964577,
          55.6690724
        ]
      },
      "id": "node/1309144509"
    },
    {
      "type": "Feature",
      "properties": {
        "@id": "node/1309144510",
        "bench": "no",
        "bin": "yes",
        "covered": "no",
        "highway": "bus_stop",
        "name": "Christmas Møllers Plads",
        "public_transport": "platform",
        "shelter": "no"
      },
      "geometry": {
        "type": "Point",
        "coordinates": [
          12.5973538,
          55.6687818
        ]
      },
      "id": "node/1309144510"
    },
    {
      "type": "Feature",
      "properties": {
        "@id": "node/1310602129",
        "highway": "bus_stop",
        "name": "Kastrupvej",
        "public_transport": "platform"
      },
      "geometry": {
        "type": "Point",
        "coordinates": [
          12.6141794,
          55.6604252
        ]
      },
      "id": "node/1310602129"
    },
    {
      "type": "Feature",
      "properties": {
        "@id": "node/1310602130",
        "bus": "yes",
        "highway": "bus_stop",
        "name": "Sønderport",
        "network": "Movia",
        "network:wikidata": "Q3359392",
        "public_transport": "platform"
      },
      "geometry": {
        "type": "Point",
        "coordinates": [
          12.5980153,
          55.6658754
        ]
      },
      "id": "node/1310602130"
    },
    {
      "type": "Feature",
      "properties": {
        "@id": "node/1310602133",
        "highway": "bus_stop",
        "name": "Amagerbro St.",
        "public_transport": "platform",
        "shelter": "no"
      },
      "geometry": {
        "type": "Point",
        "coordinates": [
          12.6023563,
          55.6642288
        ]
      },
      "id": "node/1310602133"
    },